City_ID,City,Country,Lat,Lng,Max Temp,Humidity,Cloudiness,Wind Speed,Current Description
0,Ushuaia,AR,-54.8,-68.3,46.06,53,100,13.8,overcast clouds
1,Conceicao Do Araguaia,BR,-8.2578,-49.2647,79.52,55,100,2.59,overcast clouds
2,Hermanus,ZA,-34.4187,19.2345,65.12,46,8,6.78,clear sky
3,Okhotsk,RU,59.3833,143.3,49.68,86,95,3.4,overcast clouds
4,Lagoa,PT,39.05,-27.9833,64.2,94,100,15.9,overcast clouds
5,Grand Gaube,MU,-20.0064,57.6608,71.38,78,4,3.0,clear sky
6,Jamestown,US,42.097,-79.2353,60.44,73,100,10.36,overcast clouds
7,Butaritari,KI,3.0707,172.7902,81.1,78,27,12.3,light rain
8,Puerto Ayora,EC,-0.7393,-90.3518,68.56,99,60,3.0,broken clouds
9,Busselton,AU,-33.65,115.3333,58.05,55,91,19.51,overcast clouds
10,Ribeira Grande,PT,38.5167,-28.7,65.43,94,65,11.3,broken clouds
11,Macau,MO,22.2006,113.5461,80.4,94,40,13.8,light intensity shower rain
12,Punta Arenas,CL,-53.15,-70.9167,42.91,65,75,11.5,broken clouds
13,Taylorville,US,39.5489,-89.2945,80.49,50,0,0.0,clear sky
14,Vaini,TO,-21.2,-175.2,78.96,69,20,11.5,few clouds
15,Kirakira,SB,-10.4544,161.9205,83.57,75,41,8.79,scattered clouds
16,Sopot,PL,54.4418,18.56,62.96,85,100,3.44,overcast clouds
17,Kodiak,US,57.79,-152.4072,54.91,67,100,12.66,overcast clouds
18,Kaitangata,NZ,-46.2817,169.8464,52.59,68,100,5.1,overcast clouds
19,Boa Vista,BR,2.8197,-60.6733,80.58,74,20,2.3,few clouds
20,Rikitea,PF,-23.1203,-134.9692,73.24,58,44,11.86,scattered clouds
21,Hobart,AU,-42.8794,147.3294,49.05,71,75,9.22,broken clouds
22,Mayo,US,38.8876,-76.5119,73.98,87,100,13.8,overcast clouds
23,Hami,CN,42.8,93.45,77.14,16,42,17.22,scattered clouds
24,Kigorobya,UG,1.6162,31.3089,66.65,77,100,5.12,overcast clouds
25,Nikolskoye,RU,59.7035,30.7861,49.91,71,71,5.19,broken clouds
26,New Norfolk,AU,-42.7826,147.0587,48.7,82,99,1.99,overcast clouds
27,Ponta Do Sol,PT,32.6667,-17.1,72.23,79,0,1.52,clear sky
28,Huilong,CN,31.8111,121.655,71.92,66,74,8.34,broken clouds
29,Pekan,MY,3.4836,103.3996,77.11,88,100,2.8,overcast clouds
30,Tianpeng,CN,30.9866,103.9393,80.73,72,100,7.29,overcast clouds
31,Saint-Philippe,RE,-21.3585,55.7679,67.59,83,60,7.96,light rain
32,Tiznit,MA,29.5833,-9.5,73.38,36,0,1.68,clear sky
33,Saskylakh,RU,71.9167,114.0833,51.12,50,4,11.97,clear sky
34,Khatanga,RU,71.9667,102.5,55.74,50,100,18.1,overcast clouds
35,Tres Arroyos,AR,-38.3739,-60.2798,50.09,70,2,8.32,clear sky
36,Eydhafushi,MV,5.1033,73.0708,81.84,72,100,10.42,overcast clouds
37,Grindavik,IS,63.8424,-22.4338,53.55,76,75,3.44,broken clouds
38,Cape Town,ZA,-33.9258,18.4232,69.12,44,0,10.36,clear sky
39,Roebourne,AU,-20.7833,117.1333,68.95,44,100,17.31,overcast clouds
40,Vila Velha,BR,-20.3297,-40.2925,69.75,77,0,5.75,clear sky
41,Nelson Bay,AU,-32.7167,152.15,55.11,55,3,5.01,clear sky
42,Albany,US,42.6001,-73.9662,65.95,88,100,3.0,overcast clouds
43,Alekseyevka,RU,50.6309,38.6903,54.88,84,0,3.22,clear sky
44,Qaanaaq,GL,77.484,-69.3632,29.14,93,100,4.25,overcast clouds
45,Erenhot,CN,43.6475,111.9767,64.81,33,100,4.68,overcast clouds
46,Grakhovo,RU,56.0502,51.9676,51.1,97,100,17.2,overcast clouds
47,Uige,AO,-7.6087,15.0613,61.66,52,5,3.31,clear sky
48,Algiers,DZ,36.7525,3.042,66.02,94,20,2.3,mist
49,Mar Del Plata,AR,-38.0023,-57.5575,54.09,82,90,2.3,overcast clouds
50,Naryan-Mar,RU,67.6713,53.087,56.88,67,82,11.23,broken clouds
51,Yangambi,CD,0.8102,24.4336,69.67,77,100,1.34,overcast clouds
52,Prainha,BR,-1.8,-53.48,72.82,96,100,2.98,overcast clouds
53,Mataura,NZ,-46.1927,168.8643,52.48,70,91,1.48,overcast clouds
54,Asau,RO,46.4333,26.4,55.96,90,77,3.15,broken clouds
55,Pevek,RU,69.7008,170.3133,37.35,79,32,5.28,scattered clouds
56,Santiago,CL,-33.4569,-70.6483,57.85,69,0,6.91,clear sky
57,Masallatah,LY,32.6167,14.0,74.73,53,9,4.99,clear sky
58,Guangyuan,CN,32.442,105.823,73.36,82,100,2.24,overcast clouds
59,Meulaboh,ID,4.1363,96.1285,77.05,77,100,3.15,overcast clouds
60,Arkadak,RU,51.9326,43.4978,48.27,89,0,6.51,clear sky
61,Barrow,US,71.2906,-156.7887,28.42,86,100,11.5,overcast clouds
62,Arraial Do Cabo,BR,-22.9661,-42.0278,67.96,88,0,2.3,clear sky
63,Alta Floresta,BR,-9.8756,-56.0861,75.02,83,0,1.14,clear sky
64,Hamilton,US,39.1834,-84.5333,78.24,80,40,9.22,scattered clouds
65,Road Town,VG,18.4167,-64.6167,82.49,78,40,8.05,scattered clouds
66,Port Macquarie,AU,-31.4333,152.9167,58.89,41,0,8.46,clear sky
67,Iqaluit,CA,63.7506,-68.5145,49.73,61,40,13.8,scattered clouds
68,Mahebourg,MU,-20.4081,57.7,71.26,94,40,3.44,scattered clouds
69,Bambous Virieux,MU,-20.3428,57.7575,71.22,94,40,3.44,scattered clouds
70,Kasungu,MW,-13.0333,33.4833,51.67,95,43,2.46,scattered clouds
71,Khani,GE,41.9563,42.9566,56.77,94,83,3.15,broken clouds
72,Castro,BR,-24.7911,-50.0119,58.6,97,100,1.54,overcast clouds
73,Asfi,MA,32.2994,-9.2372,67.08,92,3,12.57,clear sky
74,Georgetown,MY,5.4112,100.3354,80.53,93,20,2.3,few clouds
75,Bluff,NZ,-46.6,168.3333,52.81,70,27,11.61,scattered clouds
76,Port Alfred,ZA,-33.5906,26.891,63.32,60,0,11.77,clear sky
77,Ostrovnoy,RU,68.0531,39.5131,46.94,87,10,2.26,clear sky
78,Songjianghe,CN,42.1859,127.479,57.96,80,98,3.91,overcast clouds
79,Nome,US,64.5011,-165.4064,73.17,32,0,10.36,clear sky
80,Raudeberg,NO,61.9875,5.1352,54.27,87,100,21.81,overcast clouds
81,Itarema,BR,-2.9248,-39.9167,75.33,89,50,6.78,scattered clouds
82,Kishi,NG,9.0833,3.85,74.82,76,86,3.8,overcast clouds
83,Warri,NG,5.5167,5.75,75.81,91,100,2.71,overcast clouds
84,Cordoba,AR,-31.4135,-64.1811,60.76,64,0,6.91,clear sky
85,Beloha,MG,-25.1667,45.05,63.41,78,23,9.75,few clouds
86,Carnarvon,AU,-24.8667,113.6333,66.27,77,40,23.02,moderate rain
87,Touros,BR,-5.1989,-35.4608,75.7,82,100,9.6,overcast clouds
88,Noyabrsk,RU,63.1994,75.4507,51.94,52,5,14.88,clear sky
89,Gamba,GA,-2.65,10.0,72.97,95,100,2.44,overcast clouds
90,Kidal,ML,18.4411,1.4078,89.04,19,5,4.56,clear sky
91,Souillac,MU,-20.5167,57.5167,70.18,94,40,3.44,scattered clouds
92,Kedgwick,CA,47.6446,-67.3434,57.58,75,100,4.41,overcast clouds
93,Muzhi,RU,65.3667,64.6667,56.03,48,8,9.62,clear sky
94,Chuy,UY,-33.6971,-53.4616,53.17,94,70,4.9,broken clouds
95,Guerrero Negro,MX,27.9769,-114.0611,67.26,74,79,19.53,broken clouds
96,Severo-Kurilsk,RU,50.6789,156.125,45.52,82,93,11.61,overcast clouds
97,Alanya,TR,36.5438,31.9998,69.93,78,0,4.38,clear sky
98,Coihaique,CL,-45.5752,-72.0662,45.21,76,75,3.44,broken clouds
99,Vila Franca Do Campo,PT,37.7167,-25.4333,69.19,95,100,6.35,overcast clouds
100,Ixtapa,MX,20.7,-105.2,81.63,69,20,9.22,few clouds
101,Port Elizabeth,ZA,-33.918,25.5701,60.31,62,0,6.91,clear sky
102,Ankpa,NG,7.3706,7.6253,71.46,89,100,6.13,overcast clouds
103,Bredasdorp,ZA,-34.5322,20.0403,61.63,35,9,5.82,clear sky
104,Pacific Grove,US,36.6177,-121.9166,78.39,71,0,11.5,clear sky
105,Lavrentiya,RU,65.5833,-171.0,45.54,59,5,2.19,clear sky
106,Ambanja,MG,-13.6833,48.45,69.76,82,6,3.62,clear sky
107,Ust-Kulom,RU,61.6864,53.6902,49.53,60,99,8.77,overcast clouds
108,Puerto Escondido,MX,15.85,-97.0667,81.54,77,47,5.53,scattered clouds
109,Teya,RU,60.3778,92.6267,49.78,64,100,2.44,overcast clouds
110,Najran,SA,17.4924,44.1277,75.85,13,100,1.77,overcast clouds
111,Senanga,ZM,-16.1167,23.2667,50.56,70,0,5.7,clear sky
112,Geraldton,AU,-28.7667,114.6,66.61,39,100,32.21,light rain
113,Hilo,US,19.7297,-155.09,90.28,69,40,10.36,scattered clouds
114,Catacamas,HN,14.8,-85.9,74.89,93,100,4.16,overcast clouds
115,Ilulissat,GL,69.2167,-51.1,39.22,70,0,4.61,clear sky
116,Myitkyina,MM,25.3833,97.4,75.15,98,100,0.67,overcast clouds
117,Burgeo,CA,47.6167,-57.6152,49.93,69,2,8.79,clear sky
118,Avarua,CK,-21.2078,-159.775,80.65,69,20,6.91,few clouds
119,Riyadh,SA,24.6877,46.7219,86.14,9,1,6.6,clear sky
120,Xam Nua,LA,20.4197,104.0439,68.52,98,100,1.68,overcast clouds
121,Havre-Saint-Pierre,CA,50.2334,-63.5986,53.96,54,0,9.22,clear sky
122,Svetlaya,RU,46.5389,138.3297,51.22,82,100,7.2,overcast clouds
123,Nishihara,JP,26.1842,127.7558,75.25,97,100,8.05,shower rain
124,Yellowknife,CA,62.456,-114.3525,73.92,27,40,5.75,scattered clouds
125,Tuktoyaktuk,CA,69.4541,-133.0374,33.8,75,100,13.8,overcast clouds
126,Faya,SA,18.3851,42.4509,66.31,15,67,4.76,broken clouds
127,Save,BJ,8.0425,2.486,76.96,77,86,4.34,overcast clouds
128,College,US,64.8569,-147.8028,75.58,29,20,12.66,few clouds
129,Tasiilaq,GL,65.6145,-37.6368,41.16,62,96,2.39,overcast clouds
130,Bathsheba,BB,13.2167,-59.5167,83.01,78,40,21.85,scattered clouds
131,Vostok,RU,46.4856,135.8833,53.02,95,100,3.38,moderate rain
132,Vilhena,BR,-12.7406,-60.1458,73.11,66,98,1.19,overcast clouds
133,Berlevag,NO,70.8578,29.0864,40.95,87,100,6.91,overcast clouds
134,Toma,BF,12.7667,-2.8833,82.92,56,86,7.47,light rain
135,Sao Filipe,CV,14.8961,-24.4956,73.87,79,0,4.9,clear sky
136,Luis Correia,BR,-2.8792,-41.6669,75.49,89,53,4.76,broken clouds
137,Playas,EC,-2.6333,-80.3833,70.38,89,100,8.86,overcast clouds
138,Kuytun,RU,54.3419,101.5036,51.89,56,15,7.36,few clouds
139,Thompson,CA,55.7435,-97.8558,68.16,34,40,8.05,scattered clouds
140,Faanui,PF,-16.4833,-151.75,80.53,72,91,12.37,light rain
141,Juegang,CN,32.3174,121.1855,73.98,62,1,9.42,clear sky
142,Cherskiy,RU,68.75,161.3,51.76,46,100,9.22,overcast clouds
143,Kapaa,US,22.0752,-159.319,82.47,76,0,11.5,clear sky
144,Atuona,PF,-9.8,-139.0333,77.94,74,6,13.89,clear sky
145,Sault Sainte Marie,CA,46.5168,-84.3333,57.76,78,0,13.8,clear sky
146,Merauke,ID,-8.4667,140.3333,83.46,73,44,10.8,scattered clouds
147,Koumac,NC,-20.5667,164.2833,81.28,61,82,5.08,broken clouds
148,Khor,RU,47.8861,134.9464,66.24,78,81,6.78,moderate rain
149,Kushima,JP,31.4583,131.2333,77.25,59,47,4.32,scattered clouds
150,Olinda,BR,-8.0089,-34.8553,74.93,94,20,2.3,few clouds
151,Hithadhoo,MV,-0.6,73.0833,82.44,68,100,5.37,overcast clouds
152,Ginda,IN,30.6945,78.4932,69.75,33,0,5.3,clear sky
153,Fort Nelson,CA,58.8053,-122.7002,63.99,55,75,6.91,broken clouds
154,Henties Bay,NA,-22.116,14.2845,71.55,33,0,17.92,clear sky
155,Fortuna,US,40.5982,-124.1573,68.94,72,20,11.5,few clouds
156,Acapulco,MX,16.8634,-99.8901,81.21,77,100,6.93,overcast clouds
157,North Platte,US,41.1239,-100.7654,71.49,75,75,20.0,broken clouds
158,Tuatapere,NZ,-46.1333,167.6833,54.18,66,66,1.9,broken clouds
159,Carballo,ES,43.213,-8.691,65.55,91,100,5.12,overcast clouds
160,Korla,CN,41.7597,86.1469,75.85,27,0,11.63,clear sky
161,Progreso,MX,21.2833,-89.6667,75.31,80,100,14.36,overcast clouds
162,Charleville-Mezieres,FR,49.7667,4.7167,51.26,95,100,4.05,overcast clouds
163,Alofi,NU,-19.0595,-169.9187,78.69,65,40,8.05,scattered clouds
164,Fulton,US,33.7668,-84.4499,80.1,81,75,3.44,broken clouds
165,Klaksvik,FO,62.2266,-6.589,47.32,74,100,17.25,overcast clouds
166,Lompoc,US,34.6391,-120.4579,73.54,71,0,31.0,mist
167,Kalangala,UG,-0.3089,32.225,74.55,72,98,16.75,moderate rain
168,Northam,GB,51.0333,-4.2167,58.6,95,73,15.7,broken clouds
169,Nova Olimpia,BR,-14.7972,-57.2881,74.03,71,73,3.58,light rain
170,Talnakh,RU,69.4865,88.3972,34.21,99,100,4.05,snow
171,Sioux Lookout,CA,50.1001,-91.917,66.27,42,75,4.61,broken clouds
172,Laukaa,RU,58.7372,29.8453,49.62,64,100,5.17,overcast clouds
173,Necochea,AR,-38.5473,-58.7368,52.05,66,77,10.51,broken clouds
174,Komsomolskiy,UZ,40.4272,71.7189,72.32,43,34,6.91,scattered clouds
175,Vao,NC,-22.6667,167.4833,75.76,70,73,15.46,broken clouds
176,Mattru,SL,7.6244,-11.8332,72.88,94,100,2.64,overcast clouds
177,Chilca,PE,-12.5211,-76.7372,63.57,87,10,4.09,clear sky
178,San Cristobal,VE,7.7669,-72.225,71.78,98,45,2.37,scattered clouds
179,Kundiawa,PG,-6.0167,144.9667,72.93,75,81,1.81,broken clouds
180,Nevers,FR,46.9167,3.3333,51.51,88,100,2.93,overcast clouds
181,Sechura,PE,-5.5569,-80.8222,66.85,74,87,14.88,overcast clouds
182,Broome,US,42.2506,-75.833,67.19,93,100,10.36,overcast clouds
183,Airai,TL,-8.9266,125.4092,70.2,59,100,4.76,overcast clouds
184,Torbay,CA,47.6666,-52.7314,38.53,72,20,17.27,few clouds
185,Anloga,GH,5.7947,0.8973,80.76,76,22,12.03,few clouds
186,Xinzhi,CN,36.4989,111.7047,84.61,25,6,2.84,clear sky
187,Ceyhan,TR,37.0247,35.8175,73.24,90,100,1.07,overcast clouds
188,Sol-Iletsk,RU,51.1631,54.9918,51.69,89,0,12.71,clear sky
189,Ancud,CL,-41.8697,-73.8203,50.23,89,100,10.51,light rain
190,Aklavik,CA,68.2191,-135.0107,41.7,72,100,12.75,overcast clouds
191,Biak,ID,-0.9131,122.8766,81.45,71,44,3.38,scattered clouds
192,Dikson,RU,73.5069,80.5464,27.84,90,9,4.09,clear sky
193,Tabas,IR,33.5959,56.9244,83.61,20,40,3.56,scattered clouds
194,Goderich,CA,43.7501,-81.7165,54.91,82,100,5.75,overcast clouds
195,Ketegyhaza,HU,46.5333,21.1833,66.36,81,93,6.87,overcast clouds
196,Ahipara,NZ,-35.1667,173.1667,62.1,76,100,7.7,light rain
197,Bethel,US,41.3712,-73.414,69.03,81,100,1.99,moderate rain
198,Saint-Augustin,CA,51.226,-58.6502,53.76,37,11,7.99,few clouds
199,Killybegs,IE,54.6333,-8.45,54.21,94,89,11.5,overcast clouds
200,Sambava,MG,-14.2667,50.1667,69.96,82,4,10.22,clear sky
201,Islamkot,PK,24.6997,70.177,79.88,84,1,17.81,clear sky
202,Nemuro,JP,43.3236,145.575,46.31,78,100,7.49,overcast clouds
203,Tadine,NC,-21.55,167.8833,77.68,65,93,11.86,overcast clouds
204,Manokwari,ID,-0.8667,134.0833,82.87,70,99,6.6,overcast clouds
205,Gazli,UZ,40.1333,63.45,82.33,14,4,4.12,clear sky
206,Isla Vista,US,34.4133,-119.861,84.34,56,0,6.91,clear sky
207,Kapuskasing,CA,49.4169,-82.4331,62.69,55,40,10.36,scattered clouds
208,Lorengau,PG,-2.0226,147.2712,84.49,70,25,8.41,scattered clouds
209,Banjar,ID,-8.19,114.9675,82.35,82,100,3.76,overcast clouds
210,Cabo San Lucas,MX,22.8909,-109.9124,83.61,60,9,7.0,clear sky
211,Borinskoye,RU,52.4569,39.3713,51.1,88,0,5.73,clear sky
212,Natal,BR,-5.795,-35.2094,77.22,94,40,3.44,scattered clouds
213,Kruisfontein,ZA,-34.0033,24.7314,60.98,37,0,10.33,clear sky
214,Axim,GH,4.8699,-2.2405,78.24,77,90,6.2,overcast clouds
215,Yakima,US,46.4665,-120.6678,76.17,35,0,3.44,clear sky
216,Kaeo,NZ,-35.1,173.7833,61.32,97,100,6.31,overcast clouds
217,Inongo,CD,-1.95,18.2667,70.29,66,100,2.44,overcast clouds
218,Sinjai,ID,-5.1241,120.253,82.78,78,100,4.47,overcast clouds
219,Akureyri,IS,65.6835,-18.0878,48.13,87,0,8.05,clear sky
220,Bolobo,CD,-2.1667,16.2333,71.89,64,71,1.83,broken clouds
221,Luderitz,NA,-26.6481,15.1594,67.15,30,0,9.48,clear sky
222,Huarmey,PE,-10.0681,-78.1522,64.98,84,4,6.62,clear sky
223,Aksu,CN,41.1231,80.2644,74.14,22,0,3.02,clear sky
224,Hasaki,JP,35.7333,140.8333,63.28,84,100,13.0,overcast clouds
225,Saint George,US,37.1041,-113.5841,100.99,11,0,16.11,clear sky
226,Dingle,PH,10.9995,122.6711,84.58,70,22,2.86,few clouds
227,Rawson,AR,-43.3002,-65.1023,49.87,56,0,13.18,clear sky
228,Broken Hill,AU,-31.95,141.4333,52.83,47,99,10.98,overcast clouds
229,Anadyr,RU,64.75,177.4833,45.1,61,0,13.42,clear sky
230,Kanniyakumari,IN,8.0833,77.5667,79.09,85,88,16.31,overcast clouds
231,Kidodi,TZ,-7.6036,37.0044,70.11,71,100,2.91,overcast clouds
232,Salalah,OM,17.0151,54.0924,81.05,76,99,4.38,overcast clouds
233,Victoria,HK,22.2855,114.1577,81.97,91,100,11.99,overcast clouds
234,Cap Malheureux,MU,-19.9842,57.6142,71.47,78,5,3.0,clear sky
235,Sitka,US,57.0531,-135.33,66.09,48,75,6.91,broken clouds
236,Nador,MA,35.174,-2.9287,71.85,53,0,2.3,clear sky
237,Vestmannaeyjar,IS,63.4427,-20.2734,49.42,86,100,17.92,overcast clouds
238,Gat,IL,31.61,34.7642,75.4,85,0,2.95,clear sky
239,Esperance,AU,-33.8667,121.9,53.89,72,71,9.31,broken clouds
240,Longyearbyen,SJ,78.2186,15.6401,40.84,70,20,11.5,few clouds
241,Tarauaca,BR,-8.1614,-70.7656,72.41,97,48,2.44,scattered clouds
242,Tura,IN,25.5198,90.2201,76.68,94,100,4.88,light rain
243,Mbamba,NG,9.9833,13.1,76.06,70,100,4.09,overcast clouds
244,Pafos,CY,34.7667,32.4167,73.18,78,40,4.61,scattered clouds
245,Yamada,JP,39.4667,141.95,57.38,63,16,6.2,few clouds
246,Americus,US,32.0724,-84.2327,87.93,45,0,3.44,clear sky
247,Ketchikan,US,55.3422,-131.6461,63.07,59,0,8.05,clear sky
248,Marsa Matruh,EG,31.3525,27.2453,73.31,73,0,6.96,clear sky
249,Chacabuco,AR,-34.6417,-60.4739,51.26,64,0,4.03,clear sky
250,Olafsvik,IS,64.8945,-23.7142,49.48,88,100,4.05,overcast clouds
251,East London,ZA,-33.0153,27.9116,62.26,60,0,8.43,clear sky
252,Kloulklubed,PW,7.0419,134.2556,83.08,72,60,8.75,broken clouds
253,Kaset Sombun,TH,16.2805,101.9542,80.37,71,100,4.05,light rain
254,Manggar,ID,-2.8833,108.2667,83.07,74,89,1.59,overcast clouds
255,Shadrinsk,RU,56.0852,63.6335,54.66,93,20,8.72,few clouds
256,Armenia,AM,40.0,45.0,55.45,54,0,8.37,clear sky
257,Flinders,AU,-34.5833,150.8552,57.38,54,0,8.99,clear sky
258,Pisco,PE,-13.7,-76.2167,62.65,82,20,9.22,few clouds
259,San Antero,CO,9.3741,-75.7589,79.43,82,100,3.51,overcast clouds
260,Port Lincoln,AU,-34.7333,135.8667,56.5,61,90,10.42,overcast clouds
261,Rorvik,NO,64.8621,11.2373,45.39,68,100,24.83,overcast clouds
262,Atherton,GB,53.5237,-2.4935,59.14,95,100,4.0,overcast clouds
263,Launceston,AU,-41.45,147.1667,46.35,78,92,9.22,overcast clouds
264,Nogliki,RU,51.8333,143.1667,42.4,93,100,7.56,overcast clouds
265,Lebu,CL,-37.6167,-73.65,52.39,90,33,0.85,scattered clouds
266,Aykhal,RU,66.0,111.5,60.21,54,100,12.68,overcast clouds
267,Karasuk,RU,53.7377,78.0403,56.66,69,100,12.77,overcast clouds
268,Clyde River,CA,70.4692,-68.5914,43.03,70,100,2.3,overcast clouds
269,Avera,US,33.194,-82.5271,81.91,68,100,4.7,overcast clouds
270,Katsuura,JP,35.1333,140.3,62.26,93,100,14.12,overcast clouds
271,Kirovsk,UA,48.6375,38.6428,56.14,80,5,3.15,clear sky
272,Quatre Cocos,MU,-20.2078,57.7625,71.1,79,9,7.61,clear sky
273,Madimba,TZ,-10.4,40.3333,69.94,90,38,10.31,scattered clouds
274,Quelimane,MZ,-17.8786,36.8883,66.15,100,75,5.75,broken clouds
275,Viedma,AR,-40.8135,-62.9967,49.59,57,0,5.73,clear sky
276,Yerbogachen,RU,61.2767,108.0108,51.62,56,83,10.42,broken clouds
277,Katherine,AU,-14.4667,132.2667,77.32,33,52,16.11,broken clouds
278,San Patricio,US,28.017,-97.5169,88.54,68,9,16.4,clear sky
279,Kutum,SD,14.2,24.6667,77.49,18,8,8.5,clear sky
280,Contamana,PE,-7.3333,-75.0167,75.72,86,42,1.86,scattered clouds
281,Novikovo,RU,51.1537,37.8879,54.27,83,3,2.44,clear sky
282,Canaries,ES,28.0,-15.5,62.56,73,20,31.07,few clouds
283,Cidreira,BR,-30.1811,-50.2056,61.88,84,0,7.4,clear sky
284,Taunggyi,MM,20.7833,97.0333,64.36,96,100,4.16,overcast clouds
285,Cockburn Town,TC,21.4612,-71.1419,80.17,87,99,17.98,overcast clouds
286,Poya,NC,-21.35,165.15,79.54,63,100,3.67,overcast clouds
287,Maun,BW,-19.9833,23.4167,47.82,47,0,7.27,clear sky
288,San-Pedro,CI,4.7485,-6.6363,77.04,83,77,6.15,broken clouds
289,Middleton,GB,53.55,-2.2,58.84,94,100,5.48,overcast clouds
290,Kavaratti,IN,10.5669,72.642,82.8,75,100,12.66,overcast clouds
291,Bac Lieu,VN,9.285,105.7244,83.41,76,80,9.17,broken clouds
292,Bengkulu,ID,-3.8004,102.2655,76.53,88,56,2.93,broken clouds
293,Cikampek,ID,-6.4197,107.4558,79.09,78,72,3.4,broken clouds
294,Freeport,US,40.6576,-73.5832,71.38,72,40,20.71,scattered clouds
295,Durant,US,33.994,-96.3708,86.43,66,75,8.05,broken clouds
296,Chimbote,PE,-9.0853,-78.5783,64.8,82,30,6.58,scattered clouds
297,Nebolchi,RU,59.1239,33.3454,46.15,69,11,3.94,few clouds
298,Tezu,IN,27.9167,96.1667,75.36,93,100,1.9,overcast clouds
299,Garden City,US,42.3256,-83.331,71.6,54,40,9.22,scattered clouds
300,Tripoli,LY,32.8752,13.1875,76.84,63,100,7.99,overcast clouds
301,Bundaberg,AU,-24.85,152.35,63.21,53,10,5.99,clear sky
302,Knysna,ZA,-34.0363,23.0471,64.51,43,0,6.93,clear sky
303,Abadan,IR,30.3392,48.3043,85.95,66,0,2.3,clear sky
304,Amapa,BR,1.0,-52.0,71.87,98,93,1.97,overcast clouds
305,Tiksi,RU,71.6872,128.8694,39.65,83,47,7.78,scattered clouds
306,Pepel,SL,8.5817,-13.0628,80.82,78,75,3.44,light rain
307,Kisiwani,TZ,-4.1333,37.95,64.02,86,24,2.98,few clouds
308,Byron Bay,AU,-28.65,153.6167,60.71,47,0,9.4,clear sky
309,Baruun-Urt,MN,46.6806,113.2792,61.84,44,100,7.94,overcast clouds
310,Pasighat,IN,28.0667,95.3333,75.56,97,100,2.3,light rain
311,Ormara,PK,25.2088,64.6357,81.09,84,2,16.31,clear sky
312,Saldanha,ZA,-33.0117,17.9442,51.85,50,1,8.79,clear sky
313,Salmon Arm,CA,50.6998,-119.3024,80.44,53,41,2.3,scattered clouds
314,Tokur,RU,53.1333,132.9,68.23,41,78,4.45,broken clouds
315,Gizo,SB,-8.103,156.8419,79.92,84,96,15.19,moderate rain
316,Vondrozo,MG,-22.8167,47.2833,58.73,99,50,2.39,scattered clouds
317,Borgarnes,IS,64.5383,-21.9206,53.65,88,100,1.25,overcast clouds
318,Poum,NC,-20.2333,164.0167,77.77,78,98,19.66,overcast clouds
319,Arlit,NE,18.7369,7.3853,89.62,12,84,9.98,broken clouds
320,Lacarak,RS,45.0022,19.5686,69.22,76,92,6.8,light rain
321,Kangaatsiaq,GL,68.3065,-53.4641,35.29,68,73,9.08,broken clouds
322,Duluth,US,46.7833,-92.1066,72.18,54,75,9.22,broken clouds
323,Matagami,CA,49.7502,-77.6328,55.51,100,100,8.05,mist
324,Chilakalurupet,IN,16.0833,80.1667,88.63,45,74,9.71,broken clouds
325,Orsha,BY,54.5153,30.4053,55.65,92,13,5.91,few clouds
326,Narsaq,GL,60.9167,-46.05,43.07,73,49,3.71,scattered clouds
327,Luena,AO,-11.7833,19.9167,48.61,64,0,5.26,clear sky
328,Dunedin,NZ,-45.8742,170.5036,55.8,50,100,1.66,overcast clouds
329,Pochutla,MX,15.7432,-96.4661,77.83,81,90,3.53,overcast clouds
330,Pedasi,PA,7.5333,-80.0333,75.07,84,100,13.62,overcast clouds
331,Tocopilla,CL,-22.092,-70.1979,61.12,79,23,1.36,few clouds
332,Port Blair,IN,11.6667,92.75,80.64,89,75,8.05,mist
333,Tiarei,PF,-17.5333,-149.3333,86.02,73,11,9.04,few clouds
334,Kudahuvadhoo,MV,2.6708,72.8944,81.5,72,100,6.96,overcast clouds
335,Suamico,US,44.6319,-88.0393,74.17,79,14,7.05,few clouds
336,Tornio,FI,65.8481,24.1466,41.02,78,13,3.13,few clouds
337,Mitu,CO,1.1983,-70.1733,73.0,97,100,0.43,overcast clouds
338,Rocha,UY,-34.4833,-54.3333,51.24,94,100,6.2,overcast clouds
339,Mwinilunga,ZM,-11.7358,24.4293,49.73,83,0,6.29,clear sky
340,Foumban,CM,5.7291,10.9001,62.51,96,100,3.89,light rain
341,Izberbash,RU,42.5696,47.8645,62.65,77,86,1.72,overcast clouds
342,Astaneh-Ye Ashrafiyeh,IR,37.2596,49.9444,66.51,84,25,6.69,scattered clouds
343,Zhigansk,RU,66.7697,123.3711,61.43,66,55,15.75,broken clouds
344,Codrington,AU,-38.2667,141.9667,51.73,73,100,13.51,overcast clouds
345,Raymond Terrace,AU,-32.75,151.75,57.0,54,0,23.02,clear sky
346,Vardo,NO,70.3705,31.1107,42.78,87,75,11.5,broken clouds
347,Xifeng,CN,42.7372,124.7222,64.44,68,33,4.81,scattered clouds
348,Cayenne,GF,4.9333,-52.3333,80.1,1,0,3.44,clear sky
349,Whitianga,NZ,-36.8333,175.7,63.1,68,55,8.05,broken clouds
350,Puerto Lempira,HN,15.2667,-83.7667,78.94,83,40,0.0,scattered clouds
351,San Quintin,MX,30.4833,-115.95,65.64,75,5,10.0,clear sky
352,Isangel,VU,-19.55,169.2667,82.51,69,75,4.61,broken clouds
353,Budhlada,IN,29.9333,75.5667,90.63,20,24,11.34,few clouds
354,Namatanai,PG,-3.6667,152.4333,83.62,68,59,7.0,light rain
355,Mogilno,PL,52.6581,17.9558,59.0,92,100,4.94,overcast clouds
356,Adrar,MR,20.5022,-10.0711,89.58,19,2,12.17,clear sky
357,Beringovskiy,RU,63.05,179.3167,38.1,75,43,7.27,scattered clouds
358,Daman,IN,20.4167,72.85,83.16,83,9,8.72,clear sky
359,Tyumentsevo,RU,53.3224,81.498,57.97,61,99,5.5,overcast clouds
360,Saint-Francois,FR,46.4154,3.9054,53.04,94,0,2.3,clear sky
361,Niquero,CU,20.0431,-77.5828,78.31,84,83,6.85,broken clouds
362,Santiago Del Estero,AR,-27.7951,-64.2615,60.12,63,0,6.4,clear sky
363,Beirut,LB,33.8889,35.4944,75.38,78,40,3.44,scattered clouds
364,Taperoa,BR,-7.2075,-36.8267,68.25,95,40,9.51,scattered clouds
365,Deputatskiy,RU,69.3,139.9,51.66,31,100,12.71,overcast clouds
366,Shalakusha,RU,62.2247,40.2539,43.09,85,0,2.91,clear sky
367,Languyan,PH,5.2618,120.0807,81.95,83,100,2.01,overcast clouds
368,Boyolangu,ID,-8.1181,111.8935,80.76,80,49,3.96,scattered clouds
369,Weligama,LK,5.9667,80.4167,77.45,89,100,8.39,overcast clouds
370,Port Moresby,PG,-9.4431,147.1797,85.42,70,40,3.44,haze
371,Patrasaer,IN,23.2167,87.5167,85.44,75,100,11.23,overcast clouds
372,Bamiantong,CN,44.9333,130.5333,67.28,57,7,4.9,clear sky
373,Veraval,IN,20.9,70.3667,83.48,84,3,9.98,clear sky
374,Kulhudhuffushi,MV,6.6221,73.07,81.82,73,96,10.87,overcast clouds
375,Sinnamary,GF,5.3833,-52.95,77.25,87,100,12.75,overcast clouds
376,Dalbandin,PK,28.8947,64.4101,81.07,7,0,5.01,clear sky
377,Labuhan,ID,-6.8844,112.2051,82.04,80,71,7.27,broken clouds
378,Sao Joao Da Barra,BR,-21.6403,-41.0511,68.65,75,95,7.45,overcast clouds
379,Portland,US,45.5234,-122.6762,73.92,55,100,7.0,overcast clouds
380,Evensk,RU,61.95,159.2333,48.04,81,100,6.89,light rain
381,Mount Isa,AU,-20.7333,139.5,62.37,34,100,13.8,overcast clouds
382,Bilibino,RU,68.0546,166.4372,51.93,56,93,13.22,overcast clouds
383,Mahibadhoo,MV,3.7833,72.9667,82.04,72,100,8.88,overcast clouds
384,La Asuncion,VE,11.0333,-63.8628,91.13,58,5,18.41,clear sky
385,Kholm,RU,59.2667,32.85,46.24,69,14,4.0,few clouds
386,Linkou,CN,45.3,130.2833,68.92,55,7,5.3,clear sky
387,Los Llanos De Aridane,ES,28.6585,-17.9182,64.15,83,0,14.97,clear sky
388,Palm Coast,US,29.585,-81.2078,81.12,85,7,4.0,clear sky
389,Whitehorse,CA,60.7161,-135.0538,65.17,32,75,16.11,broken clouds
390,Buraydah,SA,26.326,43.975,88.25,7,0,5.84,clear sky
391,Fuxin,CN,42.0156,121.6589,66.47,56,89,4.88,overcast clouds
392,Ipora,BR,-16.4419,-51.1178,73.67,47,77,2.04,broken clouds
393,Yar-Sale,RU,66.8333,70.8333,51.51,50,6,8.23,clear sky
394,Kashi,CN,39.4547,75.9797,70.81,28,20,6.71,few clouds
395,Laguna,US,38.421,-121.4238,94.95,28,0,10.36,clear sky
396,Tautira,PF,-17.7333,-149.15,79.45,72,12,10.02,few clouds
397,Abu Samrah,SY,35.3029,37.1841,68.07,73,0,6.2,clear sky
398,Karatuzskoye,RU,53.6072,92.8667,52.36,58,26,2.95,scattered clouds
399,Amatan,MX,17.35,-92.75,75.24,88,100,3.11,overcast clouds
400,Provideniya,RU,64.3833,-173.3,41.11,81,20,8.95,fog
401,Jacareacanga,BR,-6.2222,-57.7528,71.96,98,84,1.74,broken clouds
402,Batu Arang,MY,3.3167,101.4667,78.35,91,100,2.51,overcast clouds
403,Bandarbeyla,SO,9.4942,50.8122,83.84,57,92,21.47,overcast clouds
404,Kirensk,RU,57.7853,108.1119,53.83,55,99,4.03,overcast clouds
405,Matara,LK,5.9485,80.5353,76.95,91,100,8.32,overcast clouds
406,Maningrida,AU,-12.0667,134.2667,84.15,58,72,15.08,broken clouds
407,Inhambane,MZ,-23.865,35.3833,66.88,72,42,9.4,scattered clouds
408,Rio Gallegos,AR,-51.6226,-69.2181,41.05,65,0,16.11,clear sky
409,Vangaindrano,MG,-23.35,47.6,66.97,87,71,1.95,broken clouds
410,The Valley,AI,18.217,-63.0578,82.26,79,12,17.65,few clouds
411,Mudgee,AU,-32.5943,149.5871,47.62,56,29,12.17,scattered clouds
412,Honiara,SB,-9.4333,159.95,86.76,64,38,8.57,light rain
413,Saint-Georges,GD,12.0564,-61.7485,82.08,78,20,23.02,few clouds
414,Mogadishu,SO,2.0371,45.3438,78.51,82,60,18.05,light rain
415,Changping,CN,40.2186,116.2197,69.44,52,82,3.53,broken clouds
416,Darnah,LY,32.767,22.6367,72.64,80,0,10.45,clear sky
417,Barra Do Garcas,BR,-15.89,-52.2567,78.46,46,100,1.66,overcast clouds
418,Hambantota,LK,6.1241,81.1185,77.34,100,20,8.05,few clouds
419,Norman Wells,CA,65.282,-126.8329,55.44,50,75,6.91,broken clouds
420,Saint-Joseph,RE,-21.3667,55.6167,66.58,82,32,7.94,light rain
421,Kargil,IN,34.5667,76.1,49.69,48,96,4.9,overcast clouds
422,Half Moon Bay,US,37.4636,-122.4286,78.58,73,0,19.57,clear sky
423,Dharchula,IN,29.85,80.5333,77.22,33,4,2.71,clear sky
424,Sao Miguel Do Araguaia,BR,-13.275,-50.1628,71.91,48,12,2.62,few clouds
425,Kysyl-Syr,RU,63.8986,122.7617,70.32,51,16,5.41,few clouds
426,Zaozerne,UA,45.1582,33.2787,64.22,70,100,13.53,overcast clouds
427,Upernavik,GL,72.7868,-56.1549,33.04,74,95,3.49,overcast clouds
428,Tazovskiy,RU,67.4667,78.7,39.7,58,0,7.96,clear sky
429,Yarada,IN,17.65,83.2667,84.52,94,75,4.61,mist
430,Dubrovnik,HR,42.6481,18.0922,67.64,72,0,10.36,clear sky
431,Waitati,NZ,-45.75,170.5667,55.8,51,100,1.28,overcast clouds
432,Trairi,BR,-3.2778,-39.2689,74.3,91,84,4.43,broken clouds
433,Namibe,AO,-15.1961,12.1522,72.86,46,5,3.91,clear sky
434,Jalu,LY,29.0331,21.5482,77.05,55,0,9.98,clear sky
435,Lengshuijiang,CN,27.6881,111.4294,82.51,69,100,2.8,overcast clouds
436,Skibbereen,IE,51.55,-9.2667,57.11,94,43,20.33,scattered clouds
437,Pandaria,IN,22.2333,81.4167,91.02,18,7,6.85,clear sky
438,Mugur-Aksy,RU,50.35,90.5,45.9,48,13,3.58,few clouds
439,Burnie,AU,-41.0667,145.9167,49.08,71,100,12.62,overcast clouds
440,Fare,PF,-16.7,-151.0167,80.15,70,26,10.94,scattered clouds
441,Polunochnoye,RU,60.8697,60.4153,46.65,72,100,9.31,light rain
442,Myaundzha,RU,63.0494,147.1858,50.74,43,87,3.27,overcast clouds
443,Araouane,ML,18.9048,-3.5265,89.51,28,0,4.65,clear sky
444,Sabha,LY,27.0377,14.4283,83.53,18,0,5.97,clear sky
445,Caxito,AO,-8.5785,13.6643,66.06,95,4,3.24,clear sky
446,Ambon,ID,-3.6954,128.1814,86.14,70,20,3.44,few clouds
447,Matata,NZ,-37.8833,176.75,67.59,64,0,8.19,clear sky
448,Nerja,ES,36.7585,-3.8873,78.98,73,0,1.77,clear sky
449,Nyurba,RU,63.2842,118.3319,67.35,55,98,4.47,overcast clouds
450,Bosaso,SO,11.2842,49.1816,85.53,57,68,5.21,broken clouds
451,Atar,MR,20.5169,-13.0499,91.2,19,95,7.11,overcast clouds
452,Ukiah,US,39.1502,-123.2078,84.09,24,0,11.5,clear sky
453,Portoferraio,IT,42.8115,10.3146,71.17,71,6,4.72,clear sky
454,Southbridge,US,42.0751,-72.0334,68.61,79,100,1.99,light rain
455,Sungaipenuh,ID,-2.0833,101.3833,68.74,90,97,1.45,overcast clouds
456,Samarai,PG,-10.6167,150.6667,83.77,73,100,10.02,overcast clouds
457,Koungou,YT,-12.7336,45.2042,78.51,78,0,11.5,clear sky
458,Rustam,PK,27.969,68.8048,82.35,38,0,7.87,clear sky
459,Campbell River,CA,50.0163,-125.2446,64.6,63,100,6.91,overcast clouds
460,Svetlyy,RU,54.675,20.1347,60.85,96,100,5.1,overcast clouds
461,Togur,RU,58.3631,82.8265,45.25,63,0,4.92,clear sky
462,Uarini,BR,-2.99,-65.1083,74.46,89,100,1.86,overcast clouds
463,Nesna,NO,66.1967,13.0213,39.67,70,100,8.1,overcast clouds
464,Bereda,ES,43.2686,-7.5406,61.57,97,100,2.82,overcast clouds
465,Santa Marinella,IT,42.0345,11.8536,66.11,63,2,2.35,clear sky
466,Paamiut,GL,61.994,-49.6678,34.86,90,59,4.16,broken clouds
467,Kota Tinggi,MY,1.7381,103.8999,82.35,70,57,1.61,broken clouds
468,Stornoway,GB,58.2093,-6.3865,53.56,85,12,4.61,few clouds
469,Moratuwa,LK,6.773,79.8816,78.82,86,100,7.29,overcast clouds
470,Camalu,MX,30.85,-116.0667,66.51,73,11,7.94,few clouds
471,Fort Dix,US,40.0298,-74.6185,73.33,62,20,9.22,light intensity drizzle
472,Nanortalik,GL,60.1432,-45.2371,39.99,86,100,2.01,overcast clouds
473,Lesnoye,RU,58.2841,35.5158,44.17,77,1,3.71,clear sky
474,Strezhevoy,RU,60.7333,77.5889,48.42,48,5,5.28,clear sky
475,Kodinar,IN,20.7903,70.7031,82.92,84,2,7.47,clear sky
476,Kerema,PG,-7.9631,145.7785,82.2,79,100,5.17,overcast clouds
477,Marsh Harbour,BS,26.5412,-77.0636,79.92,76,100,7.54,overcast clouds
478,Bonavista,CA,48.6499,-53.1147,39.04,75,4,22.55,clear sky
479,Mount Gambier,AU,-37.8333,140.7667,51.71,82,40,9.22,scattered clouds
480,San Pedro,PH,14.35,121.0167,86.32,76,75,3.44,broken clouds
481,Piracanjuba,BR,-17.3028,-49.0167,68.05,49,0,3.18,clear sky
482,Lesnyye Polyany,RU,55.9667,37.8667,57.02,73,36,5.1,scattered clouds
483,Inzhavino,RU,52.3185,42.4937,47.95,90,0,6.85,clear sky
484,Flin Flon,CA,54.7682,-101.865,66.52,32,99,8.21,overcast clouds
485,Rock Sound,BS,24.9,-76.2,79.43,75,100,6.2,overcast clouds
486,Winnemucca,US,40.973,-117.7357,80.65,12,0,10.36,clear sky
487,Linqiong,CN,30.4159,103.4609,75.02,70,100,1.16,overcast clouds
488,Changde,CN,29.0464,111.6783,81.61,70,100,2.24,overcast clouds
489,Opuwo,NA,-18.0607,13.84,54.7,46,0,7.78,clear sky
490,Noumea,NC,-22.2763,166.4572,84.18,99,97,6.89,overcast clouds
491,Rundu,NA,-17.9333,19.7667,46.71,58,0,6.53,clear sky
492,Aripuana,BR,-9.1667,-60.6333,77.22,67,87,1.63,overcast clouds
493,Cape Canaveral,US,28.4058,-80.6048,82.47,82,22,8.84,few clouds
494,Baykit,RU,61.67,96.37,49.8,77,39,3.98,scattered clouds
495,Bud,US,39.447,-86.1758,75.22,75,50,5.5,scattered clouds
496,Zell Am See,AT,47.3256,12.7944,57.0,47,100,2.46,overcast clouds
497,Pangkalanbuun,ID,-2.6833,111.6167,80.35,82,99,2.75,overcast clouds
498,Praxedis Guerrero,MX,31.3667,-106.0167,98.8,9,65,11.86,broken clouds
499,Waddan,LY,29.1614,16.139,82.29,22,0,4.18,clear sky
500,Sysert,RU,56.4953,60.8192,51.78,96,92,5.17,light rain
501,Shitanjing,CN,39.2342,106.3439,71.17,16,96,4.94,overcast clouds
502,Havelock,US,34.8791,-76.9013,78.8,86,0,5.75,clear sky
503,Ngawen,ID,-7.0032,111.3129,79.59,84,100,5.12,overcast clouds
504,Ahuimanu,US,21.4447,-157.8378,85.75,63,5,8.01,clear sky
505,Timra,SE,62.487,17.3257,46.08,93,100,3.44,overcast clouds
506,Caravelas,BR,-17.7125,-39.2481,69.35,90,96,5.1,overcast clouds
507,Ravar,IR,31.2656,56.8055,79.38,16,7,5.1,clear sky
508,Pitimbu,BR,-7.4706,-34.8086,73.99,79,7,7.02,clear sky
509,Berdigestyakh,RU,62.0989,126.6992,74.25,36,18,5.06,few clouds
510,Ossora,RU,59.2353,163.0719,45.64,83,100,12.95,overcast clouds
511,Guantanamo,CU,20.1444,-75.2092,83.46,86,99,3.8,overcast clouds
512,Kavieng,PG,-2.5744,150.7967,83.12,71,42,9.48,light rain
513,Coquimbo,CL,-29.9533,-71.3436,56.93,88,100,6.91,overcast clouds
514,Bokoro,TD,12.3807,17.0568,86.74,17,6,8.28,clear sky
515,Pingzhuang,CN,42.0372,119.2889,58.55,69,100,1.81,light rain
516,Penticton,CA,49.4806,-119.5858,79.74,32,75,13.8,broken clouds
517,Coahuayana,MX,18.7333,-103.6833,79.75,73,69,5.32,broken clouds
518,Shelburne,CA,44.0787,-80.2041,56.75,97,99,11.79,overcast clouds
519,Dasoguz,TM,41.8363,59.9666,78.75,38,0,11.5,clear sky
520,Rayagada,IN,19.1667,83.4167,86.47,53,77,2.8,broken clouds
521,Rincon,US,32.296,-81.2354,80.83,81,29,4.88,scattered clouds
522,Lewiston,US,44.1003,-70.2148,67.71,78,100,7.74,overcast clouds
523,Seymchan,RU,62.8833,152.4333,52.34,40,100,7.94,overcast clouds
524,Rio Claro,BR,-22.4114,-47.5614,67.96,64,100,3.38,overcast clouds
525,Thessalon,CA,46.2501,-83.5666,57.49,79,81,11.52,broken clouds
526,Apiai,BR,-24.5094,-48.8425,60.1,87,93,0.94,overcast clouds
527,Ust-Nera,RU,64.5667,143.2,61.3,33,86,3.62,overcast clouds
528,Makakilo City,US,21.3469,-158.0858,84.56,51,0,16.11,clear sky
529,Hofn,IS,64.2539,-15.2082,49.24,82,100,4.43,overcast clouds
530,Jerome,US,42.7241,-114.5186,72.68,26,100,4.63,overcast clouds
531,Lata,PT,40.1629,-8.3327,65.07,87,89,1.34,overcast clouds
532,Hope,US,33.6671,-93.5916,87.08,76,89,4.14,overcast clouds
533,Pangai,TO,-19.8,-174.35,80.71,65,20,8.05,few clouds
534,Pasaje,EC,-3.3333,-79.8167,71.91,96,100,1.74,overcast clouds
535,Salinopolis,BR,-0.6136,-47.3561,77.05,84,100,6.02,overcast clouds
536,Dali,CN,25.7,100.1833,63.32,93,100,2.82,overcast clouds
537,Latung,PH,5.5,120.8833,82.65,75,100,4.07,overcast clouds
538,Basco,PH,20.4487,121.9702,83.8,77,83,11.72,broken clouds
539,Valparaiso,CL,-33.0393,-71.6273,55.47,85,0,0.0,clear sky
540,Chokurdakh,RU,70.6333,147.9167,46.81,46,6,13.8,clear sky
541,Naze,JP,28.3667,129.4833,76.12,72,100,2.53,overcast clouds
542,Hingoli,IN,19.7167,77.15,84.6,51,7,14.34,clear sky
543,Ariquemes,BR,-9.9133,-63.0408,73.78,87,65,0.02,moderate rain
544,Kitimat,CA,54.0524,-128.6534,75.58,49,100,3.83,overcast clouds
545,Myre,NO,69.1036,15.9492,40.95,80,100,29.15,overcast clouds
546,Harper,LR,4.375,-7.7169,77.52,81,30,6.24,scattered clouds
547,Kurilsk,RU,45.2333,147.8833,44.92,78,100,5.37,overcast clouds
548,Zhicheng,CN,30.2956,111.5047,82.71,56,100,2.53,overcast clouds
549,La Gomera,GT,14.0833,-91.05,80.31,88,100,3.91,overcast clouds
550,Senno,RU,59.5336,33.9167,45.54,70,75,2.66,broken clouds
551,Maloy,NO,61.9353,5.1136,55.13,87,100,18.79,overcast clouds
552,Rudnogorsk,RU,57.2639,103.7519,50.18,57,90,4.0,overcast clouds
553,Plettenberg Bay,ZA,-34.0527,23.3716,64.94,45,0,7.58,clear sky
554,Kieta,PG,-6.2167,155.6333,81.16,78,99,1.48,overcast clouds
555,Natchitoches,US,31.7668,-93.1335,89.58,55,40,5.75,scattered clouds
556,Kjopsvik,NO,68.097,16.3742,43.18,96,100,7.29,overcast clouds
557,Darhan,MN,49.4867,105.9228,48.25,67,94,6.6,overcast clouds
558,Sakakah,SA,29.9697,40.2064,80.17,21,0,4.29,clear sky
559,Jamkhandi,IN,16.5167,75.3,76.05,79,84,12.19,broken clouds
560,Anchorage,US,61.2181,-149.9003,59.09,67,100,11.99,light rain
561,Taoudenni,ML,22.6783,-3.9836,95.4,16,3,8.16,clear sky
562,Prince George,CA,53.9166,-122.753,75.25,35,0,4.61,clear sky
563,Kabalo,CD,-6.05,26.9167,66.22,61,11,5.12,few clouds
564,Lubango,AO,-14.9172,13.4925,50.54,50,7,3.24,clear sky
565,Tel Aviv-Yafo,IL,32.0805,34.7805,71.78,80,0,5.75,clear sky
566,Krasnozerskoye,RU,53.9828,79.2374,55.87,76,100,8.72,overcast clouds
567,Nuqui,CO,5.7125,-77.2708,76.6,90,100,3.15,overcast clouds
568,Kattivakkam,IN,13.2167,80.3167,86.09,80,95,13.42,overcast clouds
569,Mutoko,ZW,-17.397,32.2268,46.22,75,6,5.1,clear sky
570,Colac,AU,-38.3333,143.5833,46.83,80,85,10.09,overcast clouds
571,Porto Velho,BR,-8.7619,-63.9039,77.05,94,0,0.0,clear sky
572,Jardim,BR,-21.4803,-56.1381,69.13,79,99,3.0,overcast clouds
573,Padang,ID,-0.9492,100.3543,75.25,82,97,2.8,overcast clouds
574,Kirya,TZ,-3.9167,37.4833,63.97,89,47,6.11,scattered clouds
575,Aztec,US,36.8222,-107.9929,89.42,12,1,15.61,clear sky
576,Xiashi,CN,30.5363,120.6864,75.22,70,100,9.28,overcast clouds
577,Verkh-Usugli,RU,52.7,115.1667,68.86,40,35,3.71,scattered clouds
578,Panzhihua,CN,26.5851,101.7128,68.65,83,100,0.87,overcast clouds
579,Turukhansk,RU,65.8167,87.9833,41.74,94,100,12.62,light rain
580,Sistranda,NO,63.7256,8.834,46.36,69,90,30.89,overcast clouds
581,Taltal,CL,-25.4,-70.4833,58.96,84,38,1.39,scattered clouds
582,Kaliua,TZ,-5.0606,31.7936,60.33,73,30,4.41,scattered clouds
583,Nosy Varika,MG,-20.5833,48.5333,68.0,89,41,7.09,scattered clouds
584,Aktau,KZ,43.65,51.2,63.18,65,5,10.27,clear sky
585,Te Anau,NZ,-45.4167,167.7167,50.22,80,93,4.79,moderate rain
586,Maceio,BR,-9.6658,-35.7353,72.84,94,100,3.44,overcast clouds
587,Del Rio,US,29.3627,-100.8968,102.24,28,38,8.99,scattered clouds
588,Shache,CN,38.4167,77.2406,76.71,25,88,6.33,overcast clouds
589,Jensen Beach,US,27.2545,-80.2298,79.07,88,93,1.99,overcast clouds
590,Aracati,BR,-4.5617,-37.7697,76.73,85,61,6.4,broken clouds
591,Nivala,FI,63.9167,24.9667,46.69,59,100,4.72,overcast clouds
592,Oktyabrskiy,RU,54.4815,53.471,48.06,95,100,21.23,overcast clouds
593,Great Falls,US,47.5002,-111.3008,62.67,52,92,7.0,overcast clouds
594,Angoche,MZ,-16.2325,39.9086,66.78,90,2,11.18,clear sky
595,Port-Gentil,GA,-0.7193,8.7815,76.23,88,100,7.92,overcast clouds
596,Nacala,MZ,-14.5428,40.6728,66.51,96,100,10.16,overcast clouds
597,Poronaysk,RU,49.2167,143.1167,46.38,75,90,10.89,overcast clouds
598,Uyuni,BO,-20.4597,-66.825,36.66,22,0,12.53,clear sky
599,Hvide Sande,DK,56.0045,8.1294,51.1,89,39,18.5,scattered clouds
600,Yinchuan,CN,38.4681,106.2731,74.84,16,1,7.83,clear sky
601,Jhelum,PK,32.9331,73.7264,91.29,14,57,1.05,broken clouds
602,Pandoh,IN,31.6833,77.05,80.67,24,19,5.7,few clouds
603,Ulagan,RU,50.6321,87.9563,52.52,53,10,1.34,clear sky
604,Mitsamiouli,KM,-11.3847,43.2844,77.49,70,19,7.36,few clouds
605,Podujevo,XK,42.9106,21.1931,65.35,90,22,1.77,few clouds
606,Aswan,EG,24.0934,32.907,84.79,24,0,8.66,clear sky
607,Westport,US,41.1415,-73.3579,69.84,81,100,8.01,overcast clouds
608,Champerico,GT,14.3,-91.9167,79.48,81,100,5.37,overcast clouds
609,Volax,GR,41.3167,24.0,57.83,80,59,3.02,broken clouds
610,Vetluga,RU,57.8557,45.781,47.08,96,100,12.59,overcast clouds
611,Krasnoselkup,RU,65.7,82.4667,49.87,62,100,5.23,overcast clouds
612,Sur,OM,22.5667,59.5289,85.1,61,0,7.09,clear sky
613,Rudnichnyy,RU,59.617,52.4703,46.9,92,100,13.04,overcast clouds
614,Santo Augusto,BR,-27.8508,-53.7772,60.98,79,88,5.17,overcast clouds
615,Bougouni,ML,11.417,-7.479,79.59,57,58,5.01,broken clouds
616,Pangoa,PE,-12.1167,-73.0,67.37,99,26,1.61,scattered clouds
617,Port Hawkesbury,CA,45.6169,-61.3485,52.18,87,0,4.61,clear sky
618,Alice Springs,AU,-23.7,133.8833,51.35,66,0,9.22,clear sky
619,Maraa,BR,-1.8333,-65.3667,76.24,83,100,2.24,overcast clouds
620,Bima,ID,-8.4667,118.7167,83.46,75,57,2.24,broken clouds
621,Stankov,CZ,49.5535,13.0698,56.95,93,100,5.03,overcast clouds
622,La Libertad,EC,-2.2333,-80.9,69.31,87,100,9.24,overcast clouds
623,Burhar,IN,23.2167,81.5333,89.06,19,3,4.32,clear sky
624,Ust-Maya,RU,60.4167,134.5333,68.59,39,0,7.74,clear sky
625,Bogdanovich,RU,56.7803,62.0494,53.42,97,95,5.86,overcast clouds
626,Otradnoye,RU,59.7775,30.8181,50.09,71,78,5.1,broken clouds
627,Durusu,TR,41.3053,28.6767,66.83,89,27,8.01,scattered clouds
628,Biltine,TD,14.5333,20.9167,84.7,15,1,9.4,clear sky
629,Menongue,AO,-14.6585,17.691,46.4,62,0,5.21,clear sky
630,Bani,DO,18.2833,-70.3333,82.85,84,78,6.93,broken clouds
631,Gogrial,SS,8.5332,28.1004,71.17,87,100,5.23,light rain
632,Scottsbluff,US,41.8666,-103.6672,64.78,54,32,10.0,scattered clouds
633,Takaungu,KE,-3.6837,39.8566,75.09,85,36,15.17,light rain
634,Kralendijk,BQ,12.15,-68.2667,80.65,86,13,22.68,few clouds
635,Kahului,US,20.8947,-156.47,80.83,79,43,8.01,scattered clouds
636,Phulabani,IN,20.4667,84.2333,85.89,42,61,1.83,broken clouds
637,Pangnirtung,CA,66.1451,-65.7125,39.13,87,100,2.89,overcast clouds
638,Homer,US,59.6425,-151.5483,56.05,82,100,3.0,overcast clouds
639,Karpathos,GR,35.507,27.2132,69.76,83,2,17.27,clear sky
640,Beira,MZ,-19.8436,34.8389,68.02,75,99,13.8,light rain
641,Yeppoon,AU,-23.1333,150.7333,64.18,45,3,9.01,clear sky
642,Saint-Leu,RE,-21.15,55.2833,67.06,75,0,11.77,clear sky
643,Jinji,CN,23.2281,110.8261,78.87,87,100,2.64,overcast clouds
644,Goregaon,IN,18.1667,73.3,81.36,81,76,1.9,broken clouds
645,Fort Myers Beach,US,26.452,-81.9481,80.62,70,3,7.7,clear sky
646,Koksovyy,RU,48.1967,40.5989,57.31,77,6,4.23,clear sky
647,Pinotepa Nacional,MX,16.3167,-98.0167,79.57,72,77,4.27,broken clouds
648,Sciacca,IT,37.5082,13.0881,74.64,58,0,8.66,clear sky
649,Cayhagan,PH,9.6697,122.4256,83.97,68,37,2.15,scattered clouds
650,Santhia,IT,45.3663,8.1726,67.42,84,1,4.16,clear sky
651,Sorland,NO,67.667,12.6934,42.66,70,100,15.21,overcast clouds
652,Auki,SB,-8.7676,160.7034,84.33,69,87,4.41,light rain
653,Moose Factory,CA,51.2585,-80.6094,55.38,88,100,10.36,overcast clouds
654,Marienburg,PL,54.0359,19.0266,63.12,92,100,6.78,overcast clouds
655,Leningradskiy,RU,69.3833,178.4167,37.44,71,9,14.32,clear sky
656,Saint Anthony,US,45.0205,-93.218,68.05,49,75,0.0,broken clouds
657,Biritiba-Mirim,BR,-23.5698,-46.0407,62.78,96,99,0.87,light rain
658,Mercedes,AR,-34.6515,-59.4307,47.03,81,2,4.25,clear sky
659,Hellendoorn,NL,52.3902,6.448,58.08,88,8,5.77,clear sky
660,Wuwei,CN,37.9281,102.6414,75.58,28,14,10.98,few clouds
661,Ngunguru,NZ,-35.6167,174.5,64.02,62,37,5.64,scattered clouds
662,Denpasar,ID,-8.65,115.2167,82.06,83,0,3.44,clear sky
663,Bitkine,TD,11.9801,18.2138,86.67,17,98,1.97,overcast clouds
664,Ostersund,SE,63.1792,14.6357,57.65,62,100,9.22,overcast clouds
665,Jinxiang,CN,27.4327,120.6062,72.5,80,100,5.26,overcast clouds
666,Koboko,UG,3.4136,30.9599,61.02,96,100,3.74,overcast clouds
667,Karratha,AU,-20.7377,116.8463,68.81,44,100,17.94,overcast clouds
668,Panarukan,ID,-7.7018,113.9184,82.09,77,99,3.67,overcast clouds
669,Maxixe,MZ,-23.8597,35.3472,65.46,74,40,7.94,scattered clouds
670,Winchester,GB,51.0651,-1.3187,59.49,93,100,1.01,overcast clouds
671,Isla Mujeres,MX,21.2311,-86.731,84.16,85,98,11.77,overcast clouds
672,Tucumcari,US,35.1717,-103.725,85.84,42,0,20.71,clear sky
673,Nyimba,ZM,-14.5566,30.8149,54.16,94,34,4.88,scattered clouds
674,Itupiranga,BR,-5.1347,-49.3267,79.12,84,91,2.3,overcast clouds
675,Chicama,PE,-7.8447,-79.1469,64.99,80,17,5.91,few clouds
676,Saraland,US,30.8207,-88.0706,84.72,68,7,7.29,clear sky
677,Sobolevo,RU,54.4299,31.8996,56.05,88,44,4.23,scattered clouds
678,Nueva Loja,EC,0.0847,-76.8828,71.76,98,83,1.74,broken clouds
679,Chapleau,CA,47.8405,-83.4034,62.69,55,75,6.91,broken clouds
680,Odweyne,SO,9.4092,45.064,69.46,64,100,18.75,overcast clouds
681,Bloomingdale,US,27.8936,-82.2404,85.86,76,0,5.99,clear sky
682,Jati,PK,24.3539,68.2671,83.01,71,70,19.42,broken clouds
683,Dehui,CN,44.5333,125.7,62.98,68,100,5.12,overcast clouds
684,Yulara,AU,-25.2406,130.9889,53.71,48,0,16.69,clear sky
685,Kambove,CD,-10.8764,26.5969,48.69,89,0,6.4,clear sky
